{"type":"FeatureCollection","features":[{"type":"Feature","properties":{"Name":"Liado Hayk","Country":"Ethiopia","Type":"Maar","Elevation (Meters)":878},"geometry":{"type":"Point","coordinates":[40.28,9.57]}},{"type":"Feature","properties":{"Name":"Bilate River Field","Country":"Ethiopia","Type":"Maar","Elevation (Meters)":1700},"geometry":{"type":"Point","coordinates":[38.1,7.07]}},{"type":"Feature","properties":{"Name":"Bunyaruguru","Country":"Uganda","Type":"Maar","Elevation (Meters)":1554},"geometry":{"type":"Point","coordinates":[30.08,-0.2]}},{"type":"Feature","properties":{"Name":"Qal'eh Hasan Ali","Country":"Iran","Type":"Maar","Elevation (Meters)":0},"geometry":{"type":"Point","coordinates":[57.57,29.4]}},{"type":"Feature","properties":{"Name":"Koranga","Country":"Papua New Guinea","Type":"Maar","Elevation (Meters)":1500},"geometry":{"type":"Point","coordinates":[146.708,-7.33]}},{"type":"Feature","properties":{"Name":"Malang Plain","Country":"Indonesia","Type":"Maar","Elevation (Meters)":680},"geometry":{"type":"Point","coordinates":[112.68,-8.02]}},{"type":"Feature","properties":{"Name":"Yonemaru-Sumiyoshiike","Country":"Japan","Type":"Maar","Elevation (Meters)":40},"geometry":{"type":"Point","coordinates":[130.592,31.771]}},{"type":"Feature","properties":{"Name":"Megata","Country":"Japan","Type":"Maar","Elevation (Meters)":291},"geometry":{"type":"Point","coordinates":[139.73,39.95]}},{"type":"Feature","properties":{"Name":"Kinenin","Country":"Russia","Type":"Maar","Elevation (Meters)":583},"geometry":{"type":"Point","coordinates":[160.97,57.35]}},{"type":"Feature","properties":{"Name":"Ukinrek Maars","Country":"United States","Type":"Maar","Elevation (Meters)":91},"geometry":{"type":"Point","coordinates":[-156.51,57.832]}},{"type":"Feature","properties":{"Name":"Blue Lake Crater","Country":"United States","Type":"Maar","Elevation (Meters)":1230},"geometry":{"type":"Point","coordinates":[-121.774,44.411]}},{"type":"Feature","properties":{"Name":"Ubehebe Craters","Country":"United States","Type":"Maar","Elevation (Meters)":752},"geometry":{"type":"Point","coordinates":[-117.45,37.02]}},{"type":"Feature","properties":{"Name":"Soda Lakes","Country":"United States","Type":"Maar","Elevation (Meters)":1251},"geometry":{"type":"Point","coordinates":[-118.87,39.53]}},{"type":"Feature","properties":{"Name":"Dotsero","Country":"United States","Type":"Maar","Elevation (Meters)":2230},"geometry":{"type":"Point","coordinates":[-107.035,39.661]}},{"type":"Feature","properties":{"Name":"Aramuaca, Laguna","Country":"El Salvador","Type":"Maar","Elevation (Meters)":181},"geometry":{"type":"Point","coordinates":[-88.105,13.428]}},{"type":"Feature","properties":{"Name":"San Diego","Country":"Colombia","Type":"Maar","Elevation (Meters)":1163},"geometry":{"type":"Point","coordinates":[-74.961,5.65]}},{"type":"Feature","properties":{"Name":"Jayu Khota, Laguna","Country":"Bolivia","Type":"Maar","Elevation (Meters)":3650},"geometry":{"type":"Point","coordinates":[-67.432,-19.463]}},{"type":"Feature","properties":{"Name":"Overo, Cerro","Country":"Chile","Type":"Maar","Elevation (Meters)":4555},"geometry":{"type":"Point","coordinates":[-67.67,-23.52]}},{"type":"Feature","properties":{"Name":"Tujle, Cerro","Country":"Chile","Type":"Maar","Elevation (Meters)":3550},"geometry":{"type":"Point","coordinates":[-67.95,-23.83]}},{"type":"Feature","properties":{"Name":"Bouillante Chain","Country":"France","Type":"Maar","Elevation (Meters)":420},"geometry":{"type":"Point","coordinates":[-61.75,16.12]}},{"type":"Feature","properties":{"Name":"West Eifel Volcanic Field","Country":"Germany","Type":"Maar ","Elevation (Meters)":600},"geometry":{"type":"Point","coordinates":[6.85,50.17]}}]}