{"type":"FeatureCollection","features":[{"type":"Feature","properties":{"Name":"Korath Range","Country":"Ethiopia","Type":"Tuff cone","Elevation (Meters)":912},"geometry":{"type":"Point","coordinates":[35.88,5.1]}},{"type":"Feature","properties":{"Name":"North Island","Country":"Kenya","Type":"Tuff cone","Elevation (Meters)":490},"geometry":{"type":"Point","coordinates":[36.049,4.059]}},{"type":"Feature","properties":{"Name":"Central Island","Country":"Kenya","Type":"Tuff cone","Elevation (Meters)":518},"geometry":{"type":"Point","coordinates":[36.04,3.4960000000000004]}},{"type":"Feature","properties":{"Name":"Fort Portal","Country":"Uganda","Type":"Tuff cone","Elevation (Meters)":1615},"geometry":{"type":"Point","coordinates":[30.25,0.7]}},{"type":"Feature","properties":{"Name":"Kyatwa","Country":"Uganda","Type":"Tuff cone","Elevation (Meters)":1430},"geometry":{"type":"Point","coordinates":[30.25,0.45]}},{"type":"Feature","properties":{"Name":"Katwe-Kikorongo","Country":"Uganda","Type":"Tuff cone","Elevation (Meters)":1067},"geometry":{"type":"Point","coordinates":[29.92,-0.08]}},{"type":"Feature","properties":{"Name":"Katunga","Country":"Uganda","Type":"Tuff cone","Elevation (Meters)":1707},"geometry":{"type":"Point","coordinates":[30.191,-0.47100000000000003]}},{"type":"Feature","properties":{"Name":"Marha, Jabal el-","Country":"Yemen","Type":"Tuff cone","Elevation (Meters)":2506},"geometry":{"type":"Point","coordinates":[44.236000000000004,15.245]}},{"type":"Feature","properties":{"Name":"Tutuila","Country":"United States","Type":"Tuff cone","Elevation (Meters)":653},"geometry":{"type":"Point","coordinates":[-170.7,-14.295]}},{"type":"Feature","properties":{"Name":"San Luis, Isla","Country":"Mexico","Type":"Tuff cone","Elevation (Meters)":180},"geometry":{"type":"Point","coordinates":[-114.4,29.97]}},{"type":"Feature","properties":{"Name":"Isabel, Isla","Country":"Mexico","Type":"Tuff cone","Elevation (Meters)":95},"geometry":{"type":"Point","coordinates":[-105.88600000000001,21.848000000000003]}},{"type":"Feature","properties":{"Name":"Serdan-Oriental","Country":"Mexico","Type":"Tuff cone","Elevation (Meters)":3485},"geometry":{"type":"Point","coordinates":[-97.47,19.27]}}]}